City ID,City,Country,Date_Unix_format,Date,Lat,Lng,Max Temp,Humidity,Cloudiness,Wind Speed
1,Albany,US,1547511420,1/15/2019 0:17,42.65,-73.75,21.92,56,90,3.36
2,Aransas Pass,US,1547512500,1/15/2019 0:35,27.91,-97.15,53.06,71,90,9.17
3,Bethel,US,1547510160,1/14/2019 23:56,60.79,-161.76,39.02,75,40,20.8
4,Bluefield,US,1547511780,1/15/2019 0:23,37.27,-81.22,32.9,96,90,5.82
5,California City,US,1547511360,1/15/2019 0:16,35.13,-117.99,45.5,93,90,14.99
6,Camp Verde,US,1547512500,1/15/2019 0:35,34.56,-111.85,51.8,70,90,5.53
7,Chico,US,1547510040,1/14/2019 23:54,39.73,-121.84,57.92,50,90,12.75
8,Dallas,US,1547511300,1/15/2019 0:15,32.78,-96.8,44.96,77,1,3.36
9,Elko,US,1547510160,1/14/2019 23:56,40.83,-115.76,30.02,58,1,10.29
10,Fairbanks,US,1547510280,1/14/2019 23:58,64.84,-147.72,-0.23,86,1,2.89
11,Farmington,US,1547509980,1/14/2019 23:53,36.73,-108.21,39.92,69,90,3.36
12,Ferry Pass,US,1547511300,1/15/2019 0:15,30.51,-87.21,43.52,76,90,11.41
13,Gloversville,US,1547511420,1/15/2019 0:17,43.05,-74.34,21.92,72,1,8.05
14,Hilo,US,1547509980,1/14/2019 23:53,19.71,-155.08,80.06,54,75,13.87
15,Kahului,US,1547510160,1/14/2019 23:56,20.89,-156.47,82.04,52,40,14.99
16,Kapaa,US,1547510160,1/14/2019 23:56,22.08,-159.32,82.04,58,40,12.75
17,Ketchikan,US,1547510160,1/14/2019 23:56,55.34,-131.65,46.04,95,90,4.7
18,Kodiak,US,1547510100,1/14/2019 23:55,39.95,-94.76,32,100,90,9.17
19,Lompoc,US,1547512440,1/15/2019 0:34,34.64,-120.46,57.02,93,90,6.93
20,Makakilo City,US,1547510220,1/14/2019 23:57,21.35,-158.09,82.04,60,90,9.17
21,Morgan City,US,1547512500,1/15/2019 0:35,29.7,-91.21,44.6,74,90,6.93
22,Nome,US,1547511300,1/15/2019 0:15,30.04,-94.42,50,66,1,5.82
23,Pacific Grove,US,1547512200,1/15/2019 0:30,36.62,-121.92,55.4,81,90,4.7
24,Palmer,US,1547510280,1/14/2019 23:58,61.6,-149.11,28.04,92,1,3
25,Pontiac,US,1547512560,1/15/2019 0:36,42.64,-83.29,30.02,54,1,3.36
26,Port Elizabeth,US,1547510160,1/14/2019 23:56,39.31,-74.98,32,66,1,4.7
27,Port Hueneme,US,1547511180,1/15/2019 0:13,34.15,-119.2,57.02,73,75,13.87
28,Portland,US,1547510160,1/14/2019 23:56,45.52,-122.67,50,46,20,6.93
29,Rawlins,US,1547512500,1/15/2019 0:35,41.79,-107.24,19.4,78,1,3.11
30,Ruidoso,US,1547511300,1/15/2019 0:15,33.33,-105.67,52.52,59,1,8.05
31,Shelton,US,1547512320,1/15/2019 0:32,47.22,-123.1,51.08,95,90,4.7
32,Sitka,US,1547513075,1/15/2019 0:44,37.17,-99.65,40.76,80,0,3.11
33,Stephenville,US,1547512500,1/15/2019 0:35,32.22,-98.2,46.4,67,90,3
34,Sterling,US,1547512500,1/15/2019 0:35,39,-77.4,28.94,86,1,4.9
35,Sumter,US,1547512500,1/15/2019 0:35,33.92,-80.34,44.06,93,40,2.28
36,The Colony,US,1547512500,1/15/2019 0:35,33.09,-96.89,44.96,74,1,3.36
37,Tooele,US,1547511300,1/15/2019 0:15,40.53,-112.3,28.04,86,90,3
38,Totness,US,1547512500,1/15/2019 0:35,33.74,-80.8,44.06,80,90,2.62
39,Traverse City,US,1547512560,1/15/2019 0:36,44.76,-85.62,33.08,77,90,9.17
40,Valparaiso,US,1547512860,1/15/2019 0:41,41.47,-87.06,26.6,83,90,11.41
41,Washington DC.,US,1547511780,1/15/2019 0:23,38.9,-77.04,30.02,94,1,4.34
42,Wasilla,US,1547510280,1/14/2019 23:58,61.58,-149.44,28.04,92,1,3
43,The Valley,AI,1547510400,1/15/2019 0:00,18.22,-63.06,77,69,20,8.05
44,Benguela,AO,1547513135,1/15/2019 0:45,-12.58,13.4,73.57,100,48,3.22
45,Luanda,AO,1547510400,1/15/2019 0:00,-8.83,13.24,77,83,20,5.82
46,Menongue,AO,1547513061,1/15/2019 0:44,-14.66,17.68,81.13,23,92,6.91
47,Namibe,AO,1547513087,1/15/2019 0:44,-15.19,12.15,72.04,100,32,5.41
48,Soyo,AO,1547513101,1/15/2019 0:45,-6.13,12.37,76.18,94,100,2.55
49,Barrow,AR,1547513068,1/15/2019 0:44,-38.31,-60.23,71.77,78,88,4.74
50,Bell Ville,AR,1547513073,1/15/2019 0:44,-32.63,-62.69,74.38,85,80,7.09
51,Humaita,AR,1547510400,1/15/2019 0:00,-24.93,-65.37,69.8,93,90,2.24
52,Mar del Plata,AR,1547512812,1/15/2019 0:40,-46.43,-67.52,78.11,21,20,14.14
53,Necochea,AR,1547512840,1/15/2019 0:40,-38.55,-58.74,71.95,65,88,10.11
54,Neuquen,AR,1547510400,1/15/2019 0:00,-38.95,-68.06,78.8,36,40,6.93
55,Presidencia Roque Saenz Pena,AR,1547513091,1/15/2019 0:44,-26.79,-60.44,80.05,88,44,4.23
56,Rio Tercero,AR,1547513095,1/15/2019 0:44,-32.17,-64.11,64.48,100,92,6.76
57,Tartagal,AR,1547513141,1/15/2019 0:45,-22.52,-63.8,76.45,86,48,3.51
58,Tres Arroyos,AR,1547513078,1/15/2019 0:44,-38.38,-60.28,71.77,78,88,4.74
59,Ushuaia,AR,1547510400,1/15/2019 0:00,-54.81,-68.31,53.6,71,75,13.87
60,Viedma,AR,1547513145,1/15/2019 0:45,-40.81,-62.99,79.87,32,0,12.35
61,Alice Springs,AU,1547510400,1/15/2019 0:00,-23.7,133.88,100.4,15,0,6.93
62,Bairnsdale,AU,1547513080,1/15/2019 0:44,-37.83,147.63,85.81,69,12,2.55
63,Bluff,AU,1547513059,1/15/2019 0:44,-23.58,149.07,84.86,49,0,9.66
64,Broken Hill,AU,1547510700,1/15/2019 0:05,-31.97,141.45,104,11,0,20.8
65,Burnie,AU,1547512927,1/15/2019 0:42,-41.05,145.91,66.86,92,92,10.78
66,Busselton,AU,1547513062,1/15/2019 0:44,-33.64,115.35,63.04,100,0,17.31
67,Codrington,AU,1547510400,1/15/2019 0:00,-28.95,153.24,87.8,51,0,5.82
68,Coolum Beach,AU,1547513152,1/15/2019 0:45,-26.53,153.09,82.3,69,0,6.24
69,Dubbo,AU,1547510400,1/15/2019 0:00,-32.25,148.6,98.6,16,0,14.99
70,Flinders,AU,1547510400,1/15/2019 0:00,-34.58,150.85,86,58,0,5.82
71,Hobart,AU,1547510400,1/15/2019 0:00,-42.88,147.33,77,61,0,11.41
72,Jamestown,AU,1547513061,1/15/2019 0:44,-33.21,138.6,91.84,46,32,4.41
73,Karratha,AU,1547513069,1/15/2019 0:44,-20.74,116.85,84.28,69,12,5.35
74,Kununurra,AU,1547510400,1/15/2019 0:00,-15.77,128.74,84.2,74,8,4.7
75,Mareeba,AU,1547510400,1/15/2019 0:00,-16.99,145.42,84.2,79,40,12.75
76,Margate,AU,1547510400,1/15/2019 0:00,-43.03,147.26,77,61,0,11.41
77,Maryborough,AU,1547513049,1/15/2019 0:44,-25.54,152.7,86.44,45,0,4.29
78,Mount Gambier,AU,1547510400,1/15/2019 0:00,-37.83,140.78,82.4,30,0,6.93
79,New Norfolk,AU,1547510400,1/15/2019 0:00,-42.78,147.06,77,61,0,11.41
80,Port Augusta,AU,1547510400,1/15/2019 0:00,-32.49,137.76,89.6,33,0,6.93
81,Port Lincoln,AU,1547513079,1/15/2019 0:44,-34.72,135.86,77.93,69,36,3.85
82,Yulara,AU,1547510400,1/15/2019 0:00,-25.24,130.99,100.4,14,0,6.93
83,Lerik,AZ,1547509860,1/14/2019 23:51,38.78,48.42,33.8,69,20,11.41
84,Bathsheba,BB,1547510400,1/15/2019 0:00,13.22,-59.52,77,73,40,14.99
85,Oistins,BB,1547510400,1/15/2019 0:00,13.07,-59.53,77,73,40,14.99
86,Parbatipur,BD,1547513145,1/15/2019 0:45,25.66,88.92,49.09,88,0,6.53
87,Satkhira,BD,1547510400,1/15/2019 0:00,22.72,89.08,57.2,87,0,5.82
88,Aplahoue,BJ,1547513145,1/15/2019 0:45,6.93,1.68,78.7,75,0,7.25
89,Victoria,BN,1547510400,1/15/2019 0:00,5.28,115.24,80.6,88,75,5.82
90,Mineros,BO,1547510400,1/15/2019 0:00,-17.12,-63.23,78.8,88,40,4.7
91,Uyuni,BO,1547513087,1/15/2019 0:44,-20.46,-66.82,48.1,85,12,4
92,Arraial do Cabo,BR,1547513065,1/15/2019 0:44,-22.97,-42.02,78.07,83,8,19.89
93,Barra do Garcas,BR,1547513143,1/15/2019 0:45,-15.89,-52.26,83.96,50,12,6.31
94,Boa Esperanca,BR,1547513076,1/15/2019 0:44,-1.91,-60,75.1,94,44,3.06
95,Boca do Acre,BR,1547512912,1/15/2019 0:41,-8.76,-67.39,76.18,90,20,2.1
96,Bocaiuva,BR,1547510400,1/15/2019 0:00,-17.12,-43.81,77,53,0,3.36
97,Cabedelo,BR,1547510400,1/15/2019 0:00,-6.97,-34.84,77,83,20,5.82
98,Campo Largo,BR,1547511300,1/15/2019 0:15,-25.46,-49.53,69.8,94,75,4.7
99,Caravelas,BR,1547513140,1/15/2019 0:45,-17.73,-39.27,80.95,100,8,13.96
100,Carutapera,BR,1547513069,1/15/2019 0:44,-1.2,-46.02,77.39,95,64,6.13
101,Cidreira,BR,1547513075,1/15/2019 0:44,-30.17,-50.22,79.01,91,56,4.12
102,Cururupu,BR,1547513132,1/15/2019 0:45,-1.82,-44.87,78.43,87,88,5.35
103,Imbituba,BR,1547510400,1/15/2019 0:00,-28.24,-48.67,82.4,78,75,10.29
104,Itarema,BR,1547512865,1/15/2019 0:41,-2.92,-39.92,75.55,97,20,4.9
105,Jacareacanga,BR,1547513076,1/15/2019 0:44,-6.22,-57.76,77.53,88,64,2.06
106,Maracacume,BR,1547513136,1/15/2019 0:45,-2.04,-45.96,76.58,91,76,5.23
107,Nova Olinda do Norte,BR,1547513101,1/15/2019 0:45,-3.89,-59.1,78.61,86,56,3.89
108,Oriximina,BR,1547513102,1/15/2019 0:45,-1.77,-55.87,76.72,95,36,2.1
109,Ponta do Sol,BR,1547513066,1/15/2019 0:44,-20.63,-46,72.49,80,36,2.73
110,Porto Novo,BR,1547510400,1/15/2019 0:00,-23.68,-45.44,75.2,78,40,3.36
111,Prainha,BR,1547513152,1/15/2019 0:45,-1.8,-53.48,78.25,91,80,1.72
112,Rio Claro,BR,1547510400,1/15/2019 0:00,-22.41,-47.56,75.2,69,75,8.05
113,Rio Grande,BR,1547513090,1/15/2019 0:44,-32.03,-52.1,75.14,98,92,3.85
114,Sao Borja,BR,1547513137,1/15/2019 0:45,-28.66,-56,77.8,92,24,6.08
115,Sao Jose do Campestre,BR,1547510400,1/15/2019 0:00,-6.32,-35.71,80.6,78,40,12.75
116,Touros,BR,1547510400,1/15/2019 0:00,-5.2,-35.46,78.8,88,40,4.7
117,Trairi,BR,1547513136,1/15/2019 0:45,-3.28,-39.27,79.91,100,12,6.31
118,Tutoia,BR,1547513089,1/15/2019 0:44,-2.76,-42.27,76.45,99,92,4.23
119,Vila Velha,BR,1547510400,1/15/2019 0:00,-3.71,-38.6,80.6,88,40,2.24
120,Xapuri,BR,1547513098,1/15/2019 0:44,-10.65,-68.5,78.79,84,56,2.1
121,Freetown,BS,1547510400,1/15/2019 0:00,26.61,-78.36,69.8,83,20,9.17
122,Kalakamati,BW,1547513098,1/15/2019 0:44,-20.59,27.31,71.63,73,32,8.59
123,Kang,BW,1547513123,1/15/2019 0:45,-23.67,22.79,75.28,64,64,7.43
124,Letlhakane,BW,1547513075,1/15/2019 0:44,-21.42,25.59,70.64,76,32,7.14
125,Shakawe,BW,1547513151,1/15/2019 0:45,-18.36,21.84,70.46,86,8,6.08
126,Aklavik,CA,1547510400,1/15/2019 0:00,68.22,-135.01,-20.21,67,5,4.7
127,Altamont,CA,1547511300,1/15/2019 0:15,49.4,-98.5,14,100,36,8.05
128,Bonavista,CA,1547513147,1/15/2019 0:45,48.65,-53.11,22,100,0,10.83
129,Clyde River,CA,1547511300,1/15/2019 0:15,70.47,-68.59,-29.21,66,75,6.93
130,Flin Flon,CA,1547510400,1/15/2019 0:00,54.77,-101.88,3.2,77,90,6.93
131,Geraldton,CA,1547510400,1/15/2019 0:00,49.72,-86.95,6.8,77,20,2.24
132,Goderich,CA,1547512913,1/15/2019 0:41,43.74,-81.71,22.13,79,44,9.82
133,Golden,CA,1547510400,1/15/2019 0:00,51.3,-116.96,24.8,79,90,2.24
134,Halifax,CA,1547510400,1/15/2019 0:00,44.65,-63.58,17.6,67,40,6.93
135,Hamilton,CA,1547510400,1/15/2019 0:00,43.26,-79.87,28.4,79,40,8.05
136,Havre-Saint-Pierre,CA,1547511540,1/15/2019 0:19,50.23,-63.6,15.8,78,90,9.17
137,Hay River,CA,1547510400,1/15/2019 0:00,60.82,-115.79,-18.41,75,40,5.82
138,Hudson Bay,CA,1547513155,1/15/2019 0:45,52.86,-102.4,21.1,92,92,5.08
139,Iqaluit,CA,1547510400,1/15/2019 0:00,63.75,-68.52,-0.41,70,90,9.17
140,Kapuskasing,CA,1547510400,1/15/2019 0:00,49.42,-82.43,14,85,75,5.82
141,La Ronge,CA,1547510400,1/15/2019 0:00,55.1,-105.3,23,92,90,3.36
142,Lac du Bonnet,CA,1547513144,1/15/2019 0:45,50.25,-96.06,9.4,83,44,3.74
143,Norman Wells,CA,1547510400,1/15/2019 0:00,65.28,-126.83,-9.41,63,40,6.93
144,Normandin,CA,1547510400,1/15/2019 0:00,48.84,-72.53,14,78,90,10.29
145,Notre-Dame-du-Lac,CA,1547509980,1/14/2019 23:53,47.61,-68.8,12.02,63,1,3.29
146,Pangnirtung,CA,1547506800,1/14/2019 23:00,66.15,-65.72,-7.61,69,90,13.87
147,Penticton,CA,1547510400,1/15/2019 0:00,49.49,-119.59,30.2,80,90,3.36
148,Port Hardy,CA,1547510400,1/15/2019 0:00,50.7,-127.42,44.6,87,5,2.89
149,Port Hawkesbury,CA,1547510640,1/15/2019 0:04,45.62,-61.36,12.2,85,75,6.93
150,Prince Rupert,CA,1547510400,1/15/2019 0:00,54.32,-130.32,44.6,93,75,3.51
151,Saint-Georges,CA,1547513096,1/15/2019 0:44,46.12,-70.67,1.84,86,0,4.12
152,Saint-Philippe,CA,1547510400,1/15/2019 0:00,45.36,-73.48,14,78,90,5.82
153,Sooke,CA,1547511000,1/15/2019 0:10,48.37,-123.73,46.4,84,1,2.33
154,Strathmore,CA,1547510400,1/15/2019 0:00,51.04,-113.4,39.2,55,20,9.17
155,Stromness,CA,1547510400,1/15/2019 0:00,42.87,-79.55,26.06,79,40,8.05
156,Thompson,CA,1547511060,1/15/2019 0:11,55.74,-97.86,-5.81,76,90,5.82
157,Torbay,CA,1547510400,1/15/2019 0:00,47.66,-52.73,23,79,90,13.87
158,Tuktoyaktuk,CA,1547510400,1/15/2019 0:00,69.44,-133.03,-7.61,76,75,16.11
159,Ucluelet,CA,1547510400,1/15/2019 0:00,48.94,-125.55,46.4,81,5,2.24
160,Yellowknife,CA,1547510400,1/15/2019 0:00,62.45,-114.38,-20.21,75,40,6.93
161,Buta,CD,1547513107,1/15/2019 0:45,2.79,24.73,69.16,97,36,3.74
162,Kindu,CD,1547513072,1/15/2019 0:44,-2.95,25.92,72.71,89,92,2.06
163,Likasi,CD,1547513156,1/15/2019 0:45,-10.99,26.74,64.88,100,88,3.74
164,Mbandaka,CD,1547513067,1/15/2019 0:44,0.05,18.26,73.84,98,48,2.51
165,Bangassou,CF,1547513138,1/15/2019 0:45,4.74,22.82,74.24,83,32,4.12
166,Birao,CF,1547513080,1/15/2019 0:44,10.3,22.78,69.43,35,12,9.82
167,Zemio,CF,1547513128,1/15/2019 0:45,5.02,25.13,74.38,74,64,2.51
168,San-Pedro,CI,1547513144,1/15/2019 0:45,4.75,-6.64,77.39,95,20,5.86
169,Tabou,CI,1547513089,1/15/2019 0:44,4.42,-7.36,82.61,100,0,7.92
170,Avarua,CK,1547510400,1/15/2019 0:00,-21.21,-159.78,84.2,70,40,4.7
171,Ancud,CL,1547510400,1/15/2019 0:00,-41.87,-73.83,60.8,67,20,4.7
172,Castro,CL,1547510400,1/15/2019 0:00,-42.48,-73.76,60.8,67,20,4.7
173,Coquimbo,CL,1547510400,1/15/2019 0:00,-29.95,-71.34,64.4,72,0,8.05
174,La Serena,CL,1547510400,1/15/2019 0:00,-29.9,-71.25,64.4,72,0,8.05
175,Punta Arenas,CL,1547510400,1/15/2019 0:00,-53.16,-70.91,57.2,58,75,6.93
176,Baoding,CN,1547513091,1/15/2019 0:44,38.86,115.49,13.36,24,0,10.27
177,Caohai,CN,1547513111,1/15/2019 0:45,26.87,104.28,27.85,92,92,3.89
178,Chifeng,CN,1547513063,1/15/2019 0:44,42.27,118.96,0.26,30,0,14.47
179,Datong,CN,1547513156,1/15/2019 0:45,40.09,113.3,-8.29,43,0,6.02
180,Gaomi,CN,1547510400,1/15/2019 0:00,36.37,119.8,32,71,20,17.9
181,Jiangyou,CN,1547513147,1/15/2019 0:45,31.78,104.73,35.05,56,56,8.03
182,Jiazi,CN,1547510400,1/15/2019 0:00,19.61,110.49,69.8,94,75,8.95
183,Kuandian,CN,1547513076,1/15/2019 0:44,40.73,124.78,10.61,52,0,10.94
184,Linxia,CN,1547513133,1/15/2019 0:45,35.6,103.21,5.89,79,76,1.99
185,Mingguang,CN,1547513141,1/15/2019 0:45,32.78,118.01,34.24,100,56,16.87
186,Pingxiang,CN,1547513097,1/15/2019 0:44,27.63,113.85,42.52,98,92,3.06
187,Shache,CN,1547513134,1/15/2019 0:45,38.42,77.24,5.08,68,8,3.29
188,Shihezi,CN,1547513116,1/15/2019 0:45,44.3,86.03,-3.34,73,48,2.84
189,Xichang,CN,1547513103,1/15/2019 0:45,27.88,102.25,29.02,78,0,1.61
190,Yichang,CN,1547513151,1/15/2019 0:45,30.77,111.32,34.33,86,48,4.52
191,Zhuhai,CN,1547510400,1/15/2019 0:00,40.71,112.04,-5.81,48,0,6.71
192,Santa Marta,CO,1547510400,1/15/2019 0:00,11.24,-74.21,82.4,61,20,16.11
193,Sao Filipe,CV,1547513086,1/15/2019 0:44,14.9,-24.5,72.04,97,0,16.15
194,Lasa,CY,1547510400,1/15/2019 0:00,34.92,32.53,60.8,87,75,13.87
195,Nakskov,DK,1547512882,1/15/2019 0:41,54.84,11.13,38.83,91,44,27.67
196,Tazmalt,DZ,1547510400,1/15/2019 0:00,36.39,4.4,42.8,93,20,9.17
197,Puerto Ayora,EC,1547510400,1/15/2019 0:00,-0.74,-90.35,80.6,74,20,10.29
198,San Cristobal,EC,1547510400,1/15/2019 0:00,-0.39,-78.55,57.2,100,75,4.7
199,Juba,EE,1547509800,1/14/2019 23:50,57.82,26.93,24.8,85,20,8.05
200,Damietta,EG,1547513134,1/15/2019 0:45,31.42,31.81,51.07,89,8,15.64
201,Bereda,ES,1547510400,1/15/2019 0:00,43.27,-7.54,37.4,100,64,4.7
202,Carballo,ES,1547510400,1/15/2019 0:00,43.21,-8.69,41,100,8,4.7
203,el Prat de Llobregat,ES,1547510400,1/15/2019 0:00,41.32,2.1,44.6,81,0,5.82
204,Fortuna,ES,1547510400,1/15/2019 0:00,38.18,-1.13,46.4,61,0,6.93
205,La Baneza,ES,1547510400,1/15/2019 0:00,42.3,-5.9,26.6,92,32,2.24
206,Zaragoza,ES,1547510400,1/15/2019 0:00,41.65,-0.88,46.4,75,0,10.29
207,Lebu,ET,1547512818,1/15/2019 0:40,8.96,38.73,34.19,65,0,2.51
208,Mandera,ET,1547513107,1/15/2019 0:45,3.94,41.86,67.27,36,0,4.34
209,Lappeenranta,FI,1547511600,1/15/2019 0:20,61.06,28.19,30.2,100,90,2.24
210,Lapua,FI,1547511600,1/15/2019 0:20,62.97,23.01,24.8,92,80,10.29
211,Mikkeli,FI,1547511600,1/15/2019 0:20,61.69,27.27,28.4,100,90,1.12
212,Klaksvik,FO,1547511600,1/15/2019 0:20,62.23,-6.59,39.2,86,48,27.51
213,Ambon,FR,1547510400,1/15/2019 0:00,47.55,-2.56,46.4,75,90,1.12
214,Le Havre,FR,1547510400,1/15/2019 0:00,49.49,0.11,46.4,70,90,8.05
215,Paris,FR,1547510400,1/15/2019 0:00,48.86,2.35,42.8,80,0,2.24
216,Saint-Augustin,FR,1547510400,1/15/2019 0:00,44.83,-0.61,46.4,75,90,3.36
217,Saint-Francois,FR,1547510400,1/15/2019 0:00,46.42,3.91,37.4,93,0,3.33
218,Saint-Pierre,FR,1547510400,1/15/2019 0:00,48.95,4.24,39.2,93,90,8.05
219,Souillac,FR,1547510400,1/15/2019 0:00,45.6,-0.6,42.8,75,90,1.12
220,Veraval,FR,1547510400,1/15/2019 0:00,49.65,0.71,46.4,81,90,4.7
221,Omboue,GA,1547513071,1/15/2019 0:44,-1.57,9.26,81.22,100,76,3.62
222,Port-Gentil,GA,1547513124,1/15/2019 0:45,-0.72,8.78,79.87,97,56,3.29
223,Blyth,GB,1547511600,1/15/2019 0:20,55.12,-1.5,46.4,87,75,19.46
224,Bridlington,GB,1547511600,1/15/2019 0:20,54.08,-0.19,42.8,93,20,17.22
225,Broome,GB,1547511600,1/15/2019 0:20,52.47,1.45,41,100,0,10.29
226,Eyemouth,GB,1547509800,1/14/2019 23:50,55.87,-2.09,44.6,87,32,11.41
227,Great Yarmouth,GB,1547511600,1/15/2019 0:20,52.61,1.73,37.4,100,8,10.29
228,Newport,GB,1547511600,1/15/2019 0:20,51.59,-3,46.4,93,75,6.93
229,Penzance,GB,1547509800,1/14/2019 23:50,50.12,-5.53,46.4,81,90,6.93
230,Albina,GF,1547513153,1/15/2019 0:45,5.5,-54.06,77.66,77,44,3.89
231,Kourou,GF,1547510400,1/15/2019 0:00,5.16,-52.64,78.8,83,75,3.36
232,Takoradi,GH,1547513097,1/15/2019 0:44,4.89,-1.75,81.04,100,44,7.65
233,Ilulissat,GL,1547509800,1/14/2019 23:50,69.22,-51.1,-11.21,63,36,3.36
234,Maniitsoq,GL,1547513063,1/15/2019 0:44,65.42,-52.9,2.38,100,8,7.54
235,Nanortalik,GL,1547513074,1/15/2019 0:44,60.14,-45.24,28.03,89,92,9.33
236,Narsaq,GL,1547509800,1/14/2019 23:50,60.91,-46.05,28.4,68,68,1.77
237,Paamiut,GL,1547513107,1/15/2019 0:45,61.99,-49.67,26.14,100,48,3.33
238,Qaanaaq,GL,1547512785,1/15/2019 0:39,77.48,-69.36,-27.91,100,0,9.26
239,Qaqortoq,GL,1547509800,1/14/2019 23:50,60.72,-46.03,28.4,68,64,4.74
240,Qasigiannguit,GL,1547509800,1/14/2019 23:50,68.82,-51.19,-11.21,63,36,3.36
241,Tasiilaq,GL,1547509800,1/14/2019 23:50,65.61,-37.64,14,51,64,18.34
242,Upernavik,GL,1547513058,1/15/2019 0:44,72.79,-56.15,-11.17,100,20,17.72
243,Nioro,GM,1547513063,1/15/2019 0:44,13.79,-15.05,73.12,33,0,9.66
244,Kharopon,GR,1547513111,1/15/2019 0:45,41.27,23.38,21.64,86,92,2.21
245,Saint George,GR,1547509800,1/14/2019 23:50,39.45,22.34,33.8,86,75,2.28
246,Bubaque,GW,1547512920,1/15/2019 0:42,11.28,-15.83,79.01,100,0,6.76
247,Georgetown,GY,1547510400,1/15/2019 0:00,6.8,-58.16,80.6,78,40,9.17
248,Petit Goave,HT,1547510400,1/15/2019 0:00,18.43,-72.87,80.6,74,20,10.29
249,Ambulu,ID,1547513065,1/15/2019 0:44,-8.35,113.61,79.15,100,36,3.89
250,Bambanglipuro,ID,1547513157,1/15/2019 0:45,-7.95,110.28,75.41,99,44,4.29
251,Banda Aceh,ID,1547513120,1/15/2019 0:45,5.56,95.32,73.79,100,88,2.1
252,Bima,ID,1547513121,1/15/2019 0:45,-8.45,118.73,75.28,100,92,2.28
253,Gorontalo,ID,1547513087,1/15/2019 0:44,0.54,123.06,73.16,100,88,2.33
254,Kaili,ID,1547513115,1/15/2019 0:45,-3.46,120.21,73.75,84,80,2.62
255,Kawalu,ID,1547513080,1/15/2019 0:44,-7.38,108.21,68.71,96,12,2.84
256,Manokwari,ID,1547512934,1/15/2019 0:42,-0.87,134.08,80.63,100,36,5.57
257,Merauke,ID,1547513059,1/15/2019 0:44,-8.49,140.4,81.08,99,36,5.64
258,Meulaboh,ID,1547512904,1/15/2019 0:41,4.14,96.13,75.64,100,80,4.07
259,Nabire,ID,1547512881,1/15/2019 0:41,-3.36,135.5,75.86,87,0,1.32
260,Padang,ID,1547510400,1/15/2019 0:00,-0.92,100.36,75.2,94,40,1.12
261,Pringsewu,ID,1547513079,1/15/2019 0:44,-5.36,104.98,74.24,93,44,2.1
262,Sungairaya,ID,1547513088,1/15/2019 0:44,0.7,108.9,76.63,96,48,3.33
263,Ballina,IE,1547512871,1/15/2019 0:41,54.11,-9.15,47.83,98,88,13.85
264,Mahon,IE,1547512200,1/15/2019 0:30,51.89,-8.4,41,100,40,4.7
265,Westport,IE,1547513085,1/15/2019 0:44,53.8,-9.52,48.73,99,76,15.82
266,Gizo,IL,1547511600,1/15/2019 0:20,31.8,34.94,51.8,66,0,9.17
267,Anantapur,IN,1547512848,1/15/2019 0:40,14.68,77.61,53.23,82,0,2.89
268,Bodh Gaya,IN,1547510400,1/15/2019 0:00,24.7,84.98,44.6,81,0,10.29
269,Dharchula,IN,1547513118,1/15/2019 0:45,29.85,80.53,20.74,55,0,2.55
270,Fatehabad,IN,1547513060,1/15/2019 0:44,27.03,78.3,43.06,74,0,9.6
271,Kavaratti,IN,1547513081,1/15/2019 0:44,10.57,72.64,82.16,100,0,9.6
272,Lakheri,IN,1547513143,1/15/2019 0:45,25.67,76.19,41.03,64,0,3
273,Mangrol,IN,1547513090,1/15/2019 0:44,25.33,76.51,38.74,72,0,3
274,Pedana,IN,1547510400,1/15/2019 0:00,16.26,81.15,66.2,93,8,0.76
275,Port Blair,IN,1547512848,1/15/2019 0:40,11.67,92.75,81.85,100,36,11.34
276,Rapar,IN,1547513111,1/15/2019 0:45,23.57,70.65,51.88,71,0,5.41
277,Srikakulam,IN,1547513124,1/15/2019 0:45,18.29,83.89,72.98,100,8,7.58
278,Srivardhan,IN,1547513060,1/15/2019 0:44,18.03,73.02,65.96,86,0,4.74
279,Tendukheda,IN,1547513115,1/15/2019 0:45,23.4,79.54,46.43,86,0,3.62
280,Tura,IN,1547513133,1/15/2019 0:45,25.52,90.21,46.57,78,0,2.51
281,Vaini,IN,1547510400,1/15/2019 0:00,15.34,74.49,57.2,71,0,4.56
282,Mitu,IR,1547513117,1/15/2019 0:45,36.2,46.09,30.68,84,36,5.35
283,Semnan,IR,1547513080,1/15/2019 0:44,35.58,53.39,37.57,79,0,10.16
284,Hofn,IS,1547512797,1/15/2019 0:39,64.25,-15.21,38.69,100,0,24.47
285,Vestmannaeyjar,IS,1547512860,1/15/2019 0:41,63.44,-20.27,39.1,100,48,18.1
286,Martinsicuro,IT,1547511540,1/15/2019 0:19,42.89,13.92,37.4,93,24,4.7
287,Rimini,IT,1547511600,1/15/2019 0:20,44.06,12.57,39.2,51,0,9.17
288,Abashiri,JP,1547510400,1/15/2019 0:00,44.01,144.25,14,66,0,5.82
289,Hasaki,JP,1547510400,1/15/2019 0:00,35.73,140.83,37.4,74,75,2.24
290,Itoman,JP,1547512200,1/15/2019 0:30,26.12,127.67,69.8,60,0,5.82
291,Kamaishi,JP,1547510400,1/15/2019 0:00,39.28,141.86,24.8,79,75,3.36
292,Katsuura,JP,1547510400,1/15/2019 0:00,33.93,134.5,42.8,80,75,4.7
293,Makubetsu,JP,1547510400,1/15/2019 0:00,42.84,143.34,8.6,84,75,2.24
294,Muroran,JP,1547510400,1/15/2019 0:00,42.32,140.98,33.8,80,75,6.93
295,Nara,JP,1547512200,1/15/2019 0:30,34.68,135.8,44.6,70,75,8.05
296,Nemuro,JP,1547510400,1/15/2019 0:00,43.32,145.57,24.8,62,0,12.75
297,Yamada,JP,1547510400,1/15/2019 0:00,36.58,137.08,46.4,49,75,6.93
298,Marsabit,KE,1547513077,1/15/2019 0:44,2.34,37.99,66.73,72,0,4.52
299,Wajir,KE,1547513119,1/15/2019 0:45,1.75,40.07,79.78,53,68,6.31
300,At-Bashi,KG,1547513090,1/15/2019 0:44,41.17,75.81,-12.57,45,8,2.33
301,Butaritari,KI,1547512779,1/15/2019 0:39,3.07,172.79,82.88,100,80,14.92
302,Beyneu,KZ,1547513133,1/15/2019 0:45,45.32,55.19,24.56,95,76,4.34
303,Derzhavinsk,KZ,1547513110,1/15/2019 0:45,51.1,66.31,24.34,96,88,7.09
304,Ekibastuz,KZ,1547513090,1/15/2019 0:44,51.72,75.32,19.3,80,56,8.88
305,Kuryk,KZ,1547513142,1/15/2019 0:45,43.18,51.68,32.21,100,0,8.59
306,Sergeyevka,KZ,1547513117,1/15/2019 0:45,53.88,67.42,17.18,83,76,3
307,Zyryanovsk,KZ,1547513092,1/15/2019 0:44,49.74,84.27,-4.87,50,0,2.62
308,Kalmunai,LK,1547513134,1/15/2019 0:45,7.42,81.82,72.22,100,68,4.29
309,Wattegama,LK,1547513069,1/15/2019 0:44,7.35,80.68,68.44,97,48,3.22
310,Awjilah,LY,1547513118,1/15/2019 0:45,29.14,21.3,48.55,49,0,12.95
311,Darnah,LY,1547513081,1/15/2019 0:44,32.77,22.64,60.7,100,100,40.53
312,Jalu,LY,1547513068,1/15/2019 0:44,29.03,21.55,45.58,55,0,11.39
313,Nalut,LY,1547513132,1/15/2019 0:45,31.86,10.98,41.26,67,0,11.68
314,Sabha,LY,1547513146,1/15/2019 0:45,27.03,14.43,28.75,70,0,6.91
315,Marrakesh,MA,1547510400,1/15/2019 0:00,31.63,-7.99,48.2,70,0,6.93
316,Tiznit,MA,1547513116,1/15/2019 0:45,29.7,-9.73,48.68,75,36,3.85
317,Ambilobe,MG,1547513122,1/15/2019 0:45,-13.19,49.05,72.04,92,44,2.84
318,Ambovombe,MG,1547513082,1/15/2019 0:44,-25.18,46.09,78.79,86,64,4.74
319,Ankazoabo,MG,1547513090,1/15/2019 0:44,-22.29,44.51,68.84,97,36,2.77
320,Manakara,MG,1547513135,1/15/2019 0:45,-22.14,48.01,77.26,100,88,4.9
321,Miandrivazo,MG,1547513145,1/15/2019 0:45,-19.53,45.46,67.09,96,8,2.55
322,Morondava,MG,1547513080,1/15/2019 0:44,-20.3,44.28,76.54,100,36,4.23
323,Sambava,MG,1547513153,1/15/2019 0:45,-14.27,50.17,77.66,100,88,13.8
324,Poum,MK,1547513052,1/15/2019 0:44,41.28,20.71,20.33,87,8,2.28
325,Araouane,ML,1547513123,1/15/2019 0:45,18.9,-3.53,48.64,36,0,6.24
326,Djenne,ML,1547513126,1/15/2019 0:45,13.91,-4.55,67.27,37,8,9.44
327,Kolondieba,ML,1547513077,1/15/2019 0:44,11.09,-6.89,70.51,30,0,7.43
328,Thaton,MM,1547513135,1/15/2019 0:45,16.91,97.37,74.96,100,12,3.22
329,Ulaanbaatar,MN,1547510400,1/15/2019 0:00,47.92,106.92,-23.81,67,0,2.33
330,Nouadhibou,MR,1547510400,1/15/2019 0:00,20.93,-17.03,62.6,93,0,12.75
331,Bambous Virieux,MU,1547513103,1/15/2019 0:45,-20.34,57.76,79.64,82,76,9.89
332,Grand Gaube,MU,1547513089,1/15/2019 0:44,-20.01,57.66,81.08,100,76,16.6
333,Mahebourg,MU,1547513080,1/15/2019 0:44,-20.41,57.7,79.64,82,76,9.89
334,Quatre Cocos,MU,1547513068,1/15/2019 0:44,-20.21,57.76,79.64,82,76,9.89
335,Hithadhoo,MV,1547513097,1/15/2019 0:44,-0.6,73.08,81.76,100,80,4.12
336,Cabo San Lucas,MX,1547509440,1/14/2019 23:44,22.89,-109.91,68,77,90,11.41
337,Champerico,MX,1547509860,1/14/2019 23:51,16.38,-93.6,75.2,57,75,11.41
338,Coahuayana,MX,1547513085,1/15/2019 0:44,18.62,-100.35,77.53,34,20,2.28
339,Concepcion del Oro,MX,1547513104,1/15/2019 0:45,24.63,-101.42,55.61,70,32,3.78
340,Creel,MX,1547513088,1/15/2019 0:44,27.75,-107.63,51.61,55,68,4.79
341,Guerrero Negro,MX,1547513115,1/15/2019 0:45,27.97,-114.04,69.52,57,0,5.64
342,Ixtapa,MX,1547509740,1/14/2019 23:49,20.71,-105.21,78.8,83,90,9.17
343,Laguna,MX,1547509500,1/14/2019 23:45,27.52,-110.01,69.8,52,90,5.82
344,Paraiso,MX,1547509920,1/14/2019 23:52,24.01,-104.61,68,41,90,4.7
345,Poanas,MX,1547509560,1/14/2019 23:46,25.77,-103.61,75.2,36,75,6.93
346,Puerto Escondido,MX,1547509200,1/14/2019 23:40,15.86,-97.07,82.4,69,40,9.17
347,Sahuaripa,MX,1547512835,1/15/2019 0:40,29.05,-109.23,62.23,45,88,3.51
348,Tomatlan,MX,1547513086,1/15/2019 0:44,19.93,-105.25,76.18,76,88,1.99
349,Topolobampo,MX,1547509440,1/14/2019 23:44,25.6,-109.05,62.6,77,90,8.93
350,Pekan,MY,1547510400,1/15/2019 0:00,3.49,103.39,73.4,94,75,2.24
351,Tete,MZ,1547510400,1/15/2019 0:00,-16.16,33.59,77,94,40,4.7
352,Henties Bay,NA,1547513093,1/15/2019 0:44,-22.12,14.28,63.89,96,80,3.56
353,Luderitz,NA,1547513112,1/15/2019 0:45,-26.65,15.16,64.03,64,0,20.96
354,Walvis Bay,NA,1547510400,1/15/2019 0:00,-22.95,14.51,66.2,82,92,5.82
355,Noumea,NC,1547512200,1/15/2019 0:30,-22.28,166.46,87.8,55,0,19.46
356,Arlit,NE,1547513144,1/15/2019 0:45,18.74,7.39,49.09,66,0,2.77
357,Bilma,NE,1547512881,1/15/2019 0:41,18.69,12.92,40.63,38,0,7.31
358,Seydi,NE,1547513092,1/15/2019 0:44,13.34,7.75,58.63,31,0,10.38
359,Jalingo,NG,1547513113,1/15/2019 0:45,10.3,10.93,63.44,34,0,6.42
360,Lagos,NG,1547513150,1/15/2019 0:45,6.46,3.39,80.5,92,44,6.87
361,Miri,NG,1547513096,1/15/2019 0:44,10.31,9.75,57.23,61,0,3
362,Naze,NG,1547512871,1/15/2019 0:41,5.43,7.07,76.31,84,0,7.65
363,San Ramon,NI,1547513104,1/15/2019 0:45,12.92,-85.84,67.13,82,56,4.41
364,Bjornevatn,NO,1547511600,1/15/2019 0:20,69.67,29.98,21.2,92,90,3.36
365,Bronnoysund,NO,1547511600,1/15/2019 0:20,65.46,12.2,28.4,92,90,3.36
366,Havoysund,NO,1547511600,1/15/2019 0:20,71,24.66,21.2,85,0,3.36
367,Honningsvag,NO,1547513072,1/15/2019 0:44,70.98,25.97,27.44,100,88,5.53
368,Longyearbyen,NO,1547509800,1/14/2019 23:50,78.22,15.63,5,71,20,8.05
369,Mehamn,NO,1547513146,1/15/2019 0:45,71.03,27.85,22.36,81,24,6.53
370,Oksfjord,NO,1547511600,1/15/2019 0:20,70.24,22.35,21.2,85,0,3.36
371,Raudeberg,NO,1547511600,1/15/2019 0:20,61.99,5.14,32,99,92,10.29
372,Roald,NO,1547511600,1/15/2019 0:20,62.58,6.12,28.4,79,92,5.82
373,Stokmarknes,NO,1547513116,1/15/2019 0:45,68.56,14.91,20.92,100,0,5.53
374,Svarstad,NO,1547511600,1/15/2019 0:20,59.4,9.97,32,61,0,12.75
375,Ulsteinvik,NO,1547511600,1/15/2019 0:20,62.35,5.85,26.6,79,92,5.82
376,Pokhara,NP,1547513142,1/15/2019 0:45,28.21,83.99,39.46,48,0,4.56
377,Alofi,NU,1547510400,1/15/2019 0:00,-19.06,-169.92,87.8,62,40,13.87
378,Ahipara,NZ,1547513102,1/15/2019 0:45,-35.17,173.16,68.44,79,92,18.61
379,Dunedin,NZ,1547513064,1/15/2019 0:44,-45.87,170.5,61.19,88,20,3.85
380,Kaeo,NZ,1547513058,1/15/2019 0:44,-35.1,173.78,70.91,62,56,16.64
381,Kaitangata,NZ,1547512857,1/15/2019 0:40,-46.28,169.85,61.19,90,36,7.25
382,Mataura,NZ,1547512788,1/15/2019 0:39,-46.19,168.86,61.24,80,48,6.8
383,Te Anau,NZ,1547513108,1/15/2019 0:45,-45.41,167.72,62.5,61,0,3.51
384,Tuatapere,NZ,1547513084,1/15/2019 0:44,-46.13,167.69,59.17,89,0,6.42
385,Waipawa,NZ,1547513157,1/15/2019 0:45,-39.94,176.59,60.79,97,92,14.29
386,Wellington,NZ,1547512200,1/15/2019 0:30,-41.29,174.78,60.8,72,36,27.51
387,Whakatane,NZ,1547513089,1/15/2019 0:44,-37.96,176.99,66.19,100,8,4.34
388,Nizwa,OM,1547513062,1/15/2019 0:44,22.93,57.53,51.38,90,36,2.89
389,Salalah,OM,1547509800,1/14/2019 23:50,17.01,54.1,73.4,73,20,4.7
390,Sur,OM,1547513149,1/15/2019 0:45,22.57,59.53,69.25,100,0,6.87
391,Chichica,PA,1547510400,1/15/2019 0:00,8.49,-82.16,86,42,0,20.8
392,Chicama,PE,1547510400,1/15/2019 0:00,-7.84,-79.15,73.4,83,90,11.41
393,Lima,PE,1547510400,1/15/2019 0:00,-12.06,-77.04,73.4,83,75,13.87
394,Pisco,PE,1547510400,1/15/2019 0:00,-13.71,-76.2,73.4,83,0,18.34
395,Puerto Maldonado,PE,1547513114,1/15/2019 0:45,-12.59,-69.19,74.65,94,48,1.83
396,Putina,PE,1547510400,1/15/2019 0:00,-14.91,-69.87,55.4,62,75,5.82
397,Tacna,PE,1547510400,1/15/2019 0:00,-18.01,-70.25,69.8,72,75,8.05
398,Atuona,PF,1547513064,1/15/2019 0:44,-9.8,-139.03,81.94,99,48,15.59
399,Faanui,PF,1547512828,1/15/2019 0:40,-16.48,-151.75,82.3,100,76,16.93
400,Rikitea,PF,1547513063,1/15/2019 0:44,-23.12,-134.97,80.36,98,48,11.16
401,Tevaitoa,PF,1547512968,1/15/2019 0:42,-16.78,-151.5,82.79,100,88,17.49
402,Tiarei,PF,1547512200,1/15/2019 0:30,-17.53,-149.33,86,70,75,12.75
403,Kavieng,PG,1547512855,1/15/2019 0:40,-2.57,150.8,77.98,100,80,7.02
404,Kerema,PG,1547513146,1/15/2019 0:45,-7.96,145.78,83.02,81,12,2.55
405,Kieta,PG,1547513157,1/15/2019 0:45,-6.22,155.63,84.46,85,36,2.62
406,Lorengau,PG,1547513125,1/15/2019 0:45,-2.02,147.27,83.74,98,76,12.62
407,Panguna,PG,1547513152,1/15/2019 0:45,-6.32,155.48,80.18,84,92,3.33
408,Rabaul,PG,1547513143,1/15/2019 0:45,-4.2,152.17,83.02,100,20,2.89
409,Samarai,PG,1547513133,1/15/2019 0:45,-10.62,150.67,82.75,100,68,13.8
410,Vanimo,PG,1547513114,1/15/2019 0:45,-2.67,141.3,82.84,100,32,18.95
411,Calawag,PH,1547513108,1/15/2019 0:45,10.67,119.57,80.23,85,24,19.33
412,Caramoran,PH,1547513124,1/15/2019 0:45,13.98,124.13,76.18,100,92,10.94
413,Gigmoto,PH,1547513069,1/15/2019 0:44,13.78,124.39,76.18,100,92,10.94
414,Looc,PH,1547510400,1/15/2019 0:00,10.32,123.95,80.6,74,75,13.87
415,Luba,PH,1547513115,1/15/2019 0:45,17.32,120.7,66.1,71,0,3.51
416,Ocampo,PH,1547513074,1/15/2019 0:44,13.56,123.37,77.08,93,68,10.89
417,Panlaitan,PH,1547513122,1/15/2019 0:45,12.12,119.85,80.59,87,12,19.55
418,Pundaguitan,PH,1547513075,1/15/2019 0:44,6.37,126.17,78.83,100,80,13.06
419,Recodo,PH,1547513147,1/15/2019 0:45,13.03,121.49,72.94,100,88,6.87
420,Sabang,PH,1547512790,1/15/2019 0:39,13.72,123.58,77.08,93,68,10.89
421,San Quintin,PH,1547513064,1/15/2019 0:44,17.54,120.52,66.1,71,0,3.51
422,Jiwani,PK,1547513137,1/15/2019 0:45,25.05,61.74,61.42,93,8,2.55
423,Pishin,PK,1547513138,1/15/2019 0:45,30.58,67,19.39,36,0,1.32
424,Skoczow,PL,1547512200,1/15/2019 0:30,49.8,18.79,24.8,73,0,4.7
425,Camacha,PT,1547510400,1/15/2019 0:00,33.08,-16.33,60.8,72,20,4.7
426,Camara de Lobos,PT,1547510400,1/15/2019 0:00,32.63,-16.97,60.8,77,40,5.82
427,Campos,PT,1547510400,1/15/2019 0:00,41.54,-8.28,41,100,56,2.24
428,Lagoa,PT,1547510400,1/15/2019 0:00,37.14,-8.45,44.6,75,0,5.82
429,Praia da Vitoria,PT,1547510400,1/15/2019 0:00,38.73,-27.07,57.2,100,40,6.91
430,Ribeira Grande,PT,1547513071,1/15/2019 0:44,38.52,-28.7,61.73,97,76,4.9
431,Soure,PT,1547510400,1/15/2019 0:00,40.06,-8.63,41,100,36,2.24
432,Vila Franca do Campo,PT,1547510400,1/15/2019 0:00,37.72,-25.43,59,77,20,3.36
433,Kloulklubed,PW,1547509800,1/14/2019 23:50,7.04,134.26,82.4,65,40,14.99
434,San Patricio,PY,1547513065,1/15/2019 0:44,-26.98,-56.83,82.21,78,32,3
435,Saint-Leu,RE,1547512200,1/15/2019 0:30,-21.15,55.28,78.8,65,0,4.7
436,Berzovia,RO,1547512200,1/15/2019 0:30,45.43,21.63,33.8,69,0,13.87
437,Manta,RO,1547513083,1/15/2019 0:44,45.1,24.1,11.69,54,0,5.35
438,Mana,RS,1547512200,1/15/2019 0:30,43.52,20.24,32,86,88,6.08
439,Abrau-Dyurso,RU,1547510400,1/15/2019 0:00,44.7,37.6,44.6,75,88,15.66
440,Artyom,RU,1547510400,1/15/2019 0:00,43.36,132.19,19.4,79,75,4.47
441,Aykhal,RU,1547513066,1/15/2019 0:44,65.95,111.51,-56.67,0,0,2.73
442,Batagay-Alyta,RU,1547513094,1/15/2019 0:44,67.8,130.41,-58.24,0,0,2.77
443,Baykit,RU,1547512915,1/15/2019 0:41,61.68,96.39,-5.19,66,64,2.73
444,Berdigestyakh,RU,1547513113,1/15/2019 0:45,62.1,126.7,-39.39,82,0,2.62
445,Beringovskiy,RU,1547513081,1/15/2019 0:44,63.05,179.32,-3.21,99,76,31.41
446,Bilibino,RU,1547513060,1/15/2019 0:44,68.06,166.44,-46.95,0,12,2.21
447,Chernyshevskiy,RU,1547513118,1/15/2019 0:45,63.01,112.47,-31.02,51,32,4.23
448,Cherskiy,RU,1547513120,1/15/2019 0:45,68.75,161.3,-30.93,53,32,3.78
449,Chokurdakh,RU,1547513121,1/15/2019 0:45,70.62,147.9,-25.84,40,56,3.11
450,Deputatskiy,RU,1547513124,1/15/2019 0:45,69.3,139.9,-33.36,56,44,2.89
451,Dikson,RU,1547513070,1/15/2019 0:44,73.51,80.55,9.04,92,76,21.34
452,Imeni Poliny Osipenko,RU,1547512854,1/15/2019 0:40,52.42,136.49,-11.85,76,64,2.84
453,Kaduy,RU,1547513126,1/15/2019 0:45,59.2,37.15,27.22,91,80,15.59
454,Kalga,RU,1547513150,1/15/2019 0:45,50.92,118.9,-15.9,43,32,5.57
455,Kamenka,RU,1547513110,1/15/2019 0:45,53.19,44.05,21.55,92,76,14.18
456,Khatanga,RU,1547513101,1/15/2019 0:45,71.98,102.47,-18.46,54,56,16.87
457,Kholodnyy,RU,1547513065,1/15/2019 0:44,62.72,147.95,-45.96,0,8,2.51
458,Klyuchi,RU,1547513100,1/15/2019 0:45,52.25,79.17,19.61,80,88,17.43
459,Kostomuksha,RU,1547513115,1/15/2019 0:45,64.59,30.6,19.75,85,88,6.53
460,Kupino,RU,1547513150,1/15/2019 0:45,54.36,77.31,17.54,87,76,12.35
461,Kurilsk,RU,1547513137,1/15/2019 0:45,45.23,147.88,26.41,100,0,10.16
462,Kyren,RU,1547513077,1/15/2019 0:44,51.68,102.13,-26.56,35,0,2.06
463,Labytnangi,RU,1547513131,1/15/2019 0:45,66.66,66.39,-5.55,55,44,5.35
464,Lavrentiya,RU,1547512913,1/15/2019 0:41,65.58,-170.99,26.86,95,92,21.34
465,Leningradskiy,RU,1547513067,1/15/2019 0:44,69.38,178.42,-7.39,93,36,17.09
466,Lensk,RU,1547513094,1/15/2019 0:44,60.71,114.91,-13.02,59,44,3
467,Nagorsk,RU,1547513117,1/15/2019 0:45,59.32,50.8,16.42,85,88,12.95
468,Nikolskoye,RU,1547510400,1/15/2019 0:00,59.7,30.79,32,94,90,4.47
469,Nyazepetrovsk,RU,1547513124,1/15/2019 0:45,56.06,59.6,10.66,82,64,3.51
470,Okhotsk,RU,1547513111,1/15/2019 0:45,59.36,143.24,-15.09,100,56,7.58
471,Olovyannaya,RU,1547513107,1/15/2019 0:45,50.94,115.59,-13.2,57,44,6.87
472,Orlik,RU,1547513114,1/15/2019 0:45,52.51,99.83,-29.62,39,0,1.88
473,Petropavlovsk-Kamchatskiy,RU,1547510400,1/15/2019 0:00,53.05,158.65,12.2,78,20,6.71
474,Petukhovo,RU,1547513060,1/15/2019 0:44,55.06,67.89,19.57,93,76,6.76
475,Pevek,RU,1547513093,1/15/2019 0:44,69.7,170.27,-14.46,100,64,12.46
476,Pinega,RU,1547513071,1/15/2019 0:44,64.7,43.39,21.37,85,88,5.64
477,Plavsk,RU,1547513064,1/15/2019 0:44,53.71,37.29,29.29,91,88,16.93
478,Poronaysk,RU,1547513065,1/15/2019 0:44,49.22,143.1,7.51,96,88,0.83
479,Provideniya,RU,1547510400,1/15/2019 0:00,64.42,-173.23,15.8,100,90,22.37
480,Pudozh,RU,1547513118,1/15/2019 0:45,61.81,36.54,27.94,88,92,13.47
481,Saskylakh,RU,1547513142,1/15/2019 0:45,71.97,114.09,-55.14,0,0,7.76
482,Severo-Kurilsk,RU,1547512872,1/15/2019 0:41,50.68,156.12,28.3,100,56,10.38
483,Slavyanka,RU,1547513115,1/15/2019 0:45,42.86,131.39,27.94,100,76,13.4
484,Sobolevo,RU,1547513099,1/15/2019 0:44,54.43,31.9,31.27,97,92,10.89
485,Soligalich,RU,1547513061,1/15/2019 0:44,59.08,42.29,25.46,91,92,15.7
486,Spas-Demensk,RU,1547513114,1/15/2019 0:45,54.41,34.03,29.33,91,92,14.29
487,Srednekolymsk,RU,1547513065,1/15/2019 0:44,67.46,153.71,-23.77,71,56,4.12
488,Strezhevoy,RU,1547510400,1/15/2019 0:00,60.73,77.6,19.4,79,90,15.66
489,Svetlogorsk,RU,1547510400,1/15/2019 0:00,53.14,59.15,5,92,90,4.47
490,Talnakh,RU,1547513106,1/15/2019 0:45,69.49,88.39,7.24,83,80,20.07
491,Tazovskiy,RU,1547513071,1/15/2019 0:44,67.47,78.7,14.62,83,80,7.36
492,Tiksi,RU,1547513072,1/15/2019 0:44,71.64,128.87,-36.96,73,44,3.29
493,Tommot,RU,1547513081,1/15/2019 0:44,58.97,126.27,-24.36,34,20,2.39
494,Ust-Maya,RU,1547513112,1/15/2019 0:45,60.42,134.54,-35.47,66,64,3.06
495,Verkhnevilyuysk,RU,1547513092,1/15/2019 0:44,63.45,120.31,-38.04,78,8,2.77
496,Verkhoyansk,RU,1547513120,1/15/2019 0:45,67.55,133.39,-63.06,0,8,2.55
497,Vostok,RU,1547513074,1/15/2019 0:44,46.45,135.83,8.32,83,68,2.51
498,Yar-Sale,RU,1547513083,1/15/2019 0:44,66.83,70.83,9.22,91,56,9.55
499,Yerbogachen,RU,1547513117,1/15/2019 0:45,61.28,108.01,-15.09,66,56,2.73
500,Yerofey Pavlovich,RU,1547513081,1/15/2019 0:44,53.97,121.97,-16.57,45,44,2.84
501,Zeya,RU,1547513156,1/15/2019 0:45,53.74,127.27,-14.64,42,0,6.8
502,Zhigansk,RU,1547513139,1/15/2019 0:45,66.77,123.37,-35.16,66,8,3.29
503,Zyryanka,RU,1547513073,1/15/2019 0:44,65.73,150.89,-23.01,69,64,4.07
504,Kibaya,RW,1547510400,1/15/2019 0:00,-2.2,30.56,66.2,68,75,3.36
505,Buraydah,SA,1547510400,1/15/2019 0:00,26.33,43.97,55.4,43,75,11.41
506,Faya,SA,1547510400,1/15/2019 0:00,18.39,42.45,53.6,12,0,2.21
507,Buala,SB,1547513086,1/15/2019 0:44,-8.15,159.59,81.53,100,68,4.34
508,Kirakira,SB,1547513083,1/15/2019 0:44,-10.46,161.92,84.19,100,0,9.6
509,Visby,SE,1547511600,1/15/2019 0:20,57.64,18.3,33.8,50,88,33.33
510,Magburaka,SL,1547513141,1/15/2019 0:45,8.72,-11.95,73.75,59,0,4.23
511,Gat,SN,1547510400,1/15/2019 0:00,14.69,-16.54,73.4,49,8,4.7
512,Koungheul,SN,1547513087,1/15/2019 0:44,13.98,-14.8,73.12,33,0,9.66
513,Bandarbeyla,SO,1547512895,1/15/2019 0:41,9.49,50.81,75.59,100,92,14.97
514,Bosaso,SO,1547513069,1/15/2019 0:44,11.28,49.18,73.21,100,24,7.81
515,Hobyo,SO,1547513091,1/15/2019 0:44,5.35,48.53,74.47,88,64,15.59
516,Mogadishu,SO,1547512950,1/15/2019 0:42,2.04,45.34,78.7,100,44,20.56
517,Qandala,SO,1547513109,1/15/2019 0:45,11.47,49.87,58.04,100,8,3.29
518,Abu Kamal,SY,1547513144,1/15/2019 0:45,34.45,40.92,43.96,87,0,8.32
519,Birin,SY,1547513089,1/15/2019 0:44,35.01,36.67,39.91,90,48,5.41
520,Cockburn Town,TC,1547513028,1/15/2019 0:43,21.46,-71.14,78.79,99,68,9.1
521,Biltine,TD,1547513116,1/15/2019 0:45,14.53,20.93,60.34,36,0,6.35
522,Huai Thalaeng,TH,1547510400,1/15/2019 0:00,15,102.65,68,82,0,3.36
523,Ko Samui,TH,1547510400,1/15/2019 0:00,9.54,99.94,80.6,88,20,1.21
524,Airai,TL,1547513107,1/15/2019 0:45,-8.93,125.41,76.58,80,20,1.88
525,Balkanabat,TM,1547513070,1/15/2019 0:44,39.51,54.36,37.57,99,68,3
526,Turkmenabat,TM,1547510400,1/15/2019 0:00,39.09,63.58,51.8,40,90,9.17
527,Esperance,TT,1547510400,1/15/2019 0:00,10.24,-61.45,77,73,20,6.02
528,Tingi,TZ,1547513125,1/15/2019 0:45,-11.3,35.03,77.44,100,88,3.56
529,Mashivka,UA,1547513132,1/15/2019 0:45,49.44,34.87,33.56,98,92,13.13
530,Polonne,UA,1547513085,1/15/2019 0:44,50.12,27.51,23.93,86,64,17.83
531,Vyshneve,UA,1547510400,1/15/2019 0:00,50.39,30.37,30.2,74,40,13.42
532,Chuy,UY,1547512799,1/15/2019 0:39,-33.69,-53.46,71.36,97,88,7.54
533,Trinidad,UY,1547513095,1/15/2019 0:44,-33.52,-56.9,79.64,65,92,6.91
534,Nurota,UZ,1547510400,1/15/2019 0:00,40.56,65.69,51.8,40,90,11.41
535,Tucupita,VE,1547513148,1/15/2019 0:45,9.06,-62.05,80.63,62,0,10.56
536,Ho Chi Minh City,VN,1547510400,1/15/2019 0:00,10.78,106.7,77,94,40,8.05
537,Hue,VN,1547510400,1/15/2019 0:00,16.47,107.58,68,100,75,3.36
538,Isangel,VU,1547513080,1/15/2019 0:44,-19.55,169.27,78.43,100,68,11.95
539,Marzuq,YE,1547513127,1/15/2019 0:45,14.4,46.47,34.87,77,0,2.77
540,Dzaoudzi,YT,1547512200,1/15/2019 0:30,-12.79,45.27,82.4,78,0,3.36
541,Bredasdorp,ZA,1547510400,1/15/2019 0:00,-34.53,20.04,59,82,56,3.36
542,Cape Town,ZA,1547510400,1/15/2019 0:00,-33.93,18.42,60.8,82,0,2.24
543,Carnarvon,ZA,1547513091,1/15/2019 0:44,-30.97,22.13,56.29,33,0,6.08
544,Deneysville,ZA,1547513144,1/15/2019 0:45,-26.89,28.1,61.78,100,32,3.62
545,East London,ZA,1547513061,1/15/2019 0:44,-33.02,27.91,72.98,100,48,2.1
546,Hermanus,ZA,1547513083,1/15/2019 0:44,-34.42,19.24,51.11,96,0,2.55
547,Kruisfontein,ZA,1547512781,1/15/2019 0:39,-34,24.73,62.54,94,0,5.86
548,Mmabatho,ZA,1547510400,1/15/2019 0:00,-25.85,25.61,75.2,57,32,9.17
549,Plettenberg Bay,ZA,1547513099,1/15/2019 0:44,-34.05,23.37,65.33,100,0,5.01
550,Port Alfred,ZA,1547512787,1/15/2019 0:39,-33.59,26.89,67.99,97,0,2.39
551,Port Shepstone,ZA,1547513119,1/15/2019 0:45,-30.74,30.45,73.61,99,80,4.56
552,Springbok,ZA,1547513142,1/15/2019 0:45,-29.67,17.88,52.33,62,0,3
553,Lukulu,ZM,1547513150,1/15/2019 0:45,-14.38,23.24,65.78,100,100,8.55
554,Serenje,ZM,1547513102,1/15/2019 0:45,-13.23,30.22,63.71,97,92,6.53
555,Sinazongwe,ZM,1547513094,1/15/2019 0:44,-17.26,27.46,77.84,83,8,4.74
556,Solwezi,ZM,1547513139,1/15/2019 0:45,-12.18,26.4,63.31,96,92,9.82
557,Chiredzi,ZW,1547513119,1/15/2019 0:45,-21.05,31.67,78.56,84,48,4.63
558,Mvuma,ZW,1547513077,1/15/2019 0:44,-19.28,30.53,63.94,97,76,3
